City_ID,City,Lat,Lng,Max Temp,Humidity,Cloudiness,Wind Speed,Country,Date
0,lebu,-37.6167,-73.65,6.26,79,63,1.32,CL,2024-08-25 05:36:45
1,kavalerovo,44.2661,135.0572,17.36,93,100,1.96,RU,2024-08-25 05:41:01
2,blackmans bay,-43.0167,147.3167,16.52,75,100,2.24,AU,2024-08-25 05:41:02
3,kailua-kona,19.6406,-155.9956,27.98,93,75,7.2,US,2024-08-25 05:41:04
4,waitangi,-43.9535,-176.5597,11.01,96,94,1.79,NZ,2024-08-25 05:41:05
5,hammerfest,70.6634,23.6821,13.25,71,59,2.57,NO,2024-08-25 05:41:06
6,edinburgh of the seven seas,-37.0676,-12.3116,15.1,83,100,21.16,SH,2024-08-25 05:41:07
7,puerto natales,-51.7236,-72.4875,1.77,91,100,1.13,CL,2024-08-25 05:41:09
8,adamstown,-25.066,-130.1015,20.12,74,100,8.48,PN,2024-08-25 05:41:10
9,asau,46.4333,26.4,23.99,32,40,1.58,RO,2024-08-25 05:41:11
10,grytviken,-54.2811,-36.5092,-6.5,92,68,6.77,GS,2024-08-25 05:41:12
11,axim,4.8699,-2.2405,22.28,96,61,1.13,GH,2024-08-25 05:41:13
12,al bawiti,28.3492,28.8659,29.81,37,0,1.53,EG,2024-08-25 05:41:15
13,port mathurin,-19.6833,63.4167,21.37,64,50,10.63,MU,2024-08-25 05:41:16
14,albany,42.6001,-73.9662,16.92,92,13,1.03,US,2024-08-25 05:41:17
15,pasuquin,18.3328,120.6177,31.97,74,40,3.6,PH,2024-08-25 05:41:18
16,banda aceh,5.5577,95.3222,27.34,75,100,3.64,ID,2024-08-25 05:41:20
17,kununurra,-15.7667,128.7333,37.99,18,27,2.06,AU,2024-08-25 05:41:21
18,bulungu,-4.55,18.6,28.82,26,98,1.5,CD,2024-08-25 05:41:22
19,port-aux-francais,-49.35,70.2167,2.43,93,100,15.64,TF,2024-08-25 05:41:23
20,anadyr,64.75,177.4833,8.28,70,0,7.6,RU,2024-08-25 05:41:24
21,at taj,24.2049,23.2857,32.83,28,2,4.38,LY,2024-08-25 05:41:26
22,vorgashor,67.5833,63.95,18.01,55,24,5.62,RU,2024-08-25 05:41:27
23,jamestown,42.097,-79.2353,16.8,95,0,0.45,US,2024-08-25 05:40:03
24,kondoa,-4.9,35.7833,17.69,67,24,3.17,TZ,2024-08-25 05:41:29
25,manavalakurichi,8.1333,77.3,32.14,68,83,7.55,IN,2024-08-25 05:41:31
26,pervomayskoye,43.919,46.7102,29.69,30,100,7.78,RU,2024-08-25 05:41:32
27,papatowai,-46.5619,169.4708,7.23,64,94,1.01,NZ,2024-08-25 05:41:33
28,ushuaia,-54.8,-68.3,3.81,87,40,2.57,AR,2024-08-25 05:38:29
29,stanley,54.868,-1.6985,9.6,86,20,5.14,GB,2024-08-25 05:41:36
30,kavaratti,10.5669,72.642,27.04,84,100,5.75,IN,2024-08-25 05:41:37
31,kenai,60.5544,-151.2583,11.19,90,100,0.0,US,2024-08-25 05:41:39
32,tiksi,71.6872,128.8694,5.26,96,100,4.3,RU,2024-08-25 05:41:40
33,margaret river,-33.95,115.0667,15.81,71,91,6.77,AU,2024-08-25 05:41:42
34,mahibadhoo,3.7833,72.9667,28.12,73,57,3.57,MV,2024-08-25 05:41:43
35,qaqortoq,60.7167,-46.0333,3.3,98,89,1.17,GL,2024-08-25 05:41:44
36,nuuk,64.1835,-51.7216,6.34,100,100,5.14,GL,2024-08-25 05:41:45
37,jiangyou,31.7667,104.7167,32.7,58,81,1.61,CN,2024-08-25 05:41:47
38,broken hill,-31.95,141.4333,26.8,22,32,13.7,AU,2024-08-25 05:41:48
39,tralee,52.2704,-9.7026,13.45,91,100,6.59,IE,2024-08-25 05:41:49
40,ban talat yai,7.8848,98.4001,29.08,78,100,6.58,TH,2024-08-25 05:41:50
41,longyearbyen,78.2186,15.6401,10.91,76,75,8.75,SJ,2024-08-25 05:41:51
42,sitka,57.0531,-135.33,12.94,88,100,4.12,US,2024-08-25 05:41:53
43,le port,-20.9373,55.2919,22.16,80,56,4.4,RE,2024-08-25 05:41:54
44,aykhal,66.0,111.5,9.88,93,98,8.53,RU,2024-08-25 05:41:55
45,yellowknife,62.456,-114.3525,13.01,82,75,2.06,CA,2024-08-25 05:41:56
46,contamana,-7.3333,-75.0167,24.59,70,46,0.6,PE,2024-08-25 05:41:58
47,udachny,66.4167,112.4,10.85,89,100,7.9,RU,2024-08-25 05:41:59
48,saudarkrokur,65.7461,-19.6394,4.17,99,100,2.12,IS,2024-08-25 05:42:00
49,saipan,15.1355,145.701,31.39,74,20,3.6,MP,2024-08-25 05:42:01
50,thompson,55.7435,-97.8558,19.09,88,0,0.0,CA,2024-08-25 05:42:02
51,afaahiti,-17.75,-149.2833,23.21,82,89,8.99,PF,2024-08-25 05:42:04
52,caconda,-13.7333,15.0667,14.73,27,43,2.25,AO,2024-08-25 05:42:05
53,sumbawa besar,-8.5,117.4333,36.74,29,41,4.22,ID,2024-08-25 05:42:06
54,west island,-12.1568,96.8225,27.99,89,75,5.14,CC,2024-08-25 05:42:07
55,constantia,44.1833,28.65,28.17,51,6,6.61,RO,2024-08-25 05:42:09
56,georgetown,5.4112,100.3354,29.96,74,20,3.6,MY,2024-08-25 05:41:24
57,bredasdorp,-34.5322,20.0403,10.39,71,100,2.29,ZA,2024-08-25 05:42:11
58,ilulissat,69.2167,-51.1,5.01,87,100,8.75,GL,2024-08-25 05:42:12
59,sisimiut,66.9395,-53.6735,3.88,90,55,6.09,GL,2024-08-25 05:42:13
60,yamada,39.4667,141.95,24.29,83,99,1.86,JP,2024-08-25 05:42:15
61,ribas do rio pardo,-20.4431,-53.7592,14.31,73,99,4.03,BR,2024-08-25 05:42:16
62,happy valley-goose bay,53.3168,-60.3315,18.17,59,20,3.09,CA,2024-08-25 05:42:17
63,mount gambier,-37.8333,140.7667,12.09,91,84,6.48,AU,2024-08-25 05:42:18
64,avarua,-21.2078,-159.775,22.03,64,100,7.2,CK,2024-08-25 05:42:20
65,lompoc,34.6391,-120.4579,16.68,88,0,9.39,US,2024-08-25 05:42:21
66,road town,18.4167,-64.6167,27.76,69,3,5.78,VG,2024-08-25 05:42:22
67,changping,40.2186,116.2197,30.74,43,100,2.56,CN,2024-08-25 05:42:23
68,carnarvon,-24.8667,113.6333,22.3,49,0,5.39,AU,2024-08-25 05:42:24
69,hermanus,-34.4187,19.2345,10.45,82,97,3.41,ZA,2024-08-25 05:42:26
70,plouzane,48.3833,-4.6167,13.03,93,0,3.09,FR,2024-08-25 05:42:27
71,susuman,62.7833,148.1667,19.75,36,70,3.45,RU,2024-08-25 05:42:28
72,kingston,17.997,-76.7936,28.53,84,20,3.09,JM,2024-08-25 05:42:29
73,luorong,24.4058,109.6086,33.19,57,26,1.7,CN,2024-08-25 05:42:31
74,zywiec,49.6853,19.1924,24.49,95,96,0.45,PL,2024-08-25 05:42:32
75,punta arenas,-53.15,-70.9167,5.06,81,75,3.6,CL,2024-08-25 05:41:51
76,vernon,50.2581,-119.2691,14.13,86,94,1.03,CA,2024-08-25 05:42:34
77,prado,-17.3411,-39.2208,20.9,85,4,3.86,BR,2024-08-25 05:42:37
78,iqaluit,63.7506,-68.5145,4.85,80,0,2.06,CA,2024-08-25 05:42:38
79,olonkinbyen,70.9221,-8.7187,4.85,95,100,4.99,SJ,2024-08-25 05:42:39
80,mersa matruh,31.3525,27.2453,26.11,83,20,3.09,EG,2024-08-25 05:42:41
81,holualoa,19.6228,-155.9522,25.91,93,75,7.2,US,2024-08-25 05:42:42
82,ancud,-41.8697,-73.8203,5.85,86,100,2.22,CL,2024-08-25 05:42:44
83,polewali,-3.4324,119.3435,30.5,64,33,2.78,ID,2024-08-25 05:42:46
84,kolaras,25.2333,77.6,25.33,91,90,7.24,IN,2024-08-25 05:42:47
85,alice springs,-23.7,133.8833,32.75,21,0,4.63,AU,2024-08-25 05:42:48
86,fale old settlement,-9.3852,-171.2468,28.14,74,5,6.53,TK,2024-08-25 05:42:49
87,tanjung selor,2.8372,117.3642,33.22,53,88,1.29,ID,2024-08-25 05:42:50
88,lodwar,3.1191,35.5973,26.46,51,51,8.59,KE,2024-08-25 05:42:52
89,shaowu,27.3409,117.4831,34.12,54,39,1.15,CN,2024-08-25 05:42:53
90,general acha,-37.377,-64.6043,4.51,67,0,2.8,AR,2024-08-25 05:42:34
91,vila franca do campo,37.7167,-25.4333,20.23,64,8,2.0,PT,2024-08-25 05:42:55
92,colby,39.3958,-101.0524,25.03,78,0,4.12,US,2024-08-25 05:42:57
93,geraldton,-28.7667,114.6,20.23,60,100,3.09,AU,2024-08-25 05:42:58
94,choyr,46.3611,108.3611,23.93,31,100,3.55,MN,2024-08-25 05:42:59
95,sijunjung,-0.6876,100.9537,29.75,69,63,0.16,ID,2024-08-25 05:43:00
96,kuanda,56.3161,116.0806,21.83,37,38,3.46,RU,2024-08-25 05:43:01
97,broome,42.2506,-75.833,17.57,80,57,0.44,US,2024-08-25 05:43:03
98,karratha,-20.7377,116.8463,30.36,25,0,2.62,AU,2024-08-25 05:43:04
99,jayapura,-2.5333,140.7,30.66,83,100,1.55,ID,2024-08-25 05:43:05
100,tolanaro,-25.0319,46.9987,20.04,68,40,6.17,MG,2024-08-25 05:43:06
101,iskateley,67.6803,53.1512,15.19,78,56,4.56,RU,2024-08-25 05:43:08
102,chonchi,-42.6128,-73.8092,6.18,90,100,1.15,CL,2024-08-25 05:42:12
103,shalkar,47.8288,59.6258,23.11,33,3,3.41,KZ,2024-08-25 05:43:10
104,pagar alam,-4.0167,103.2667,30.8,39,58,1.81,ID,2024-08-25 05:43:11
105,grand falls-windsor,48.9332,-55.6649,14.72,89,37,2.49,CA,2024-08-25 05:43:13
106,nova sintra,14.8667,-24.7167,26.32,81,100,9.62,CV,2024-08-25 05:43:14
107,college,64.8569,-147.8028,10.97,78,75,2.06,US,2024-08-25 05:43:15
108,badger,64.8,-147.5333,10.93,81,75,2.06,US,2024-08-25 05:43:16
109,atafu village,-8.5421,-172.5159,28.14,76,24,7.02,TK,2024-08-25 05:43:17
110,pau brasil,-15.4642,-39.6511,16.89,98,2,0.47,BR,2024-08-25 05:43:19
111,osorio,-29.8867,-50.2697,6.75,86,100,2.2,BR,2024-08-25 05:43:20
112,isafjordur,66.0755,-23.124,2.57,98,100,4.73,IS,2024-08-25 05:43:21
113,tura,25.5198,90.2201,28.46,81,54,1.56,IN,2024-08-25 05:43:24
114,tanjung pandan,-2.75,107.65,32.22,50,73,3.44,ID,2024-08-25 05:43:25
115,atherton,53.5237,-2.4935,11.23,90,31,3.02,GB,2024-08-25 05:43:07
116,greenville,35.6127,-77.3663,18.97,94,19,2.37,US,2024-08-25 05:43:29
117,naze,28.3667,129.4833,30.51,71,35,2.95,JP,2024-08-25 05:43:30
118,ribeira grande,38.5167,-28.7,23.76,82,86,2.68,PT,2024-08-25 05:43:31
119,st. john's,47.5649,-52.7093,16.65,91,75,6.69,CA,2024-08-25 05:43:32
120,kristiansund,63.1115,7.732,12.36,87,40,1.03,NO,2024-08-25 05:43:34
121,tarko-sale,64.9225,77.785,17.42,52,31,6.23,RU,2024-08-25 05:43:35
122,lautoka,-17.6167,177.4667,22.92,94,75,0.0,FJ,2024-08-25 05:43:36
123,nar'yan-mar,67.6713,53.087,14.96,80,55,4.51,RU,2024-08-25 05:43:37
124,mae ramat,16.984,98.5166,25.19,91,100,0.81,TH,2024-08-25 05:43:38
125,mitsamiouli,-11.3847,43.2844,25.94,66,84,3.63,KM,2024-08-25 05:43:40
126,phan rang-thap cham,11.5667,108.9833,33.59,51,83,5.85,VN,2024-08-25 05:43:41
127,petropavlovsk-kamchatsky,53.0452,158.6483,17.33,55,75,6.0,RU,2024-08-25 05:43:42
128,wailua homesteads,22.0669,-159.378,26.44,78,100,7.72,US,2024-08-25 05:43:45
129,howard springs,-12.497,131.047,31.04,69,10,3.77,AU,2024-08-25 05:43:46
130,hithadhoo,-0.6,73.0833,28.31,72,100,2.95,MV,2024-08-25 05:39:56
131,esquina,-30.0144,-59.5272,4.28,92,29,2.01,AR,2024-08-25 05:43:48
132,oras,12.1406,125.4397,28.85,81,100,2.13,PH,2024-08-25 05:43:50
133,port alfred,-33.5906,26.891,16.22,71,58,4.05,ZA,2024-08-25 05:43:51
134,miri,4.4148,114.0089,29.08,79,40,4.12,MY,2024-08-25 05:43:52
135,klyuchi,52.2667,79.1667,17.48,62,95,6.8,RU,2024-08-25 05:43:53
136,ambilobe,-13.2,49.05,28.36,43,66,2.79,MG,2024-08-25 05:43:54
137,keflavik,64.0049,-22.5624,6.24,75,75,7.72,IS,2024-08-25 05:43:56
138,vilyuchinsk,52.9306,158.4028,18.15,80,95,3.34,RU,2024-08-25 05:43:57
139,hami,42.8,93.45,34.06,21,0,1.34,CN,2024-08-25 05:43:58
140,pochep,52.9336,33.4464,21.92,52,2,1.11,RU,2024-08-25 05:43:59
141,gamba,-2.65,10.0,22.6,82,87,1.4,GA,2024-08-25 05:44:01
142,haiku-pauwela,20.9219,-156.3051,24.73,94,86,5.81,US,2024-08-25 05:44:03
143,takoradi,4.8845,-1.7554,22.88,94,87,1.74,GH,2024-08-25 05:44:04
144,dudinka,69.4058,86.1778,13.12,67,81,2.09,RU,2024-08-25 05:44:06
145,pacific grove,36.6177,-121.9166,16.72,90,0,0.45,US,2024-08-25 05:44:07
146,kostel,42.8887,25.995,24.41,33,23,1.88,BG,2024-08-25 05:44:08
147,port elizabeth,-33.918,25.5701,14.06,92,75,1.79,ZA,2024-08-25 05:40:05
148,talnakh,69.4865,88.3972,14.7,57,93,2.83,RU,2024-08-25 05:44:11
149,puerto ayora,-0.7393,-90.3518,19.19,97,77,4.21,EC,2024-08-25 05:44:12
150,nemuro,43.3236,145.575,16.32,85,49,4.99,JP,2024-08-25 05:44:13
151,fortuna,40.5982,-124.1573,13.29,95,0,0.0,US,2024-08-25 05:44:14
152,pangkalanbuun,-2.6833,111.6167,29.51,62,80,1.54,ID,2024-08-25 05:44:16
153,invercargill,-46.4,168.35,7.79,76,91,0.89,NZ,2024-08-25 05:44:17
154,malvan,16.0667,73.4667,27.23,85,98,8.2,IN,2024-08-25 05:44:18
155,morehead city,34.7229,-76.726,23.35,86,78,4.02,US,2024-08-25 05:44:06
156,ugoofaaru,5.6667,73.0,27.95,75,100,4.11,MV,2024-08-25 05:44:21
157,escanaba,45.7453,-87.0646,16.98,100,0,0.0,US,2024-08-25 05:44:22
158,east london,-33.0153,27.9116,14.52,82,0,3.6,ZA,2024-08-25 05:44:23
159,lalmohan,22.3384,90.7419,28.04,83,99,2.88,BD,2024-08-25 05:44:24
160,ayorou,14.7308,0.9174,26.6,70,16,4.48,NE,2024-08-25 05:44:26
161,grenada,37.1882,-3.6067,23.28,58,0,1.03,ES,2024-08-25 05:44:27
162,la passe,45.5549,-0.8967,13.55,88,0,3.43,FR,2024-08-25 05:44:28
163,bilibino,68.0546,166.4372,9.31,62,94,1.0,RU,2024-08-25 05:44:29
164,ateli mandi,28.1,76.2833,31.99,55,9,7.57,IN,2024-08-25 05:44:31
165,bairnsdale,-37.8333,147.6167,25.59,50,83,1.34,AU,2024-08-25 05:44:32
166,krasnyy sulin,47.8922,40.0704,26.93,28,0,5.53,RU,2024-08-25 05:44:33
167,whitehorse,60.7161,-135.0538,11.43,68,100,5.66,CA,2024-08-25 05:44:34
168,ellsworth,44.5434,-68.4195,16.61,94,0,0.0,US,2024-08-25 05:44:35
169,kerikeri,-35.2268,173.9474,11.65,88,62,1.92,NZ,2024-08-25 05:44:37
170,konosha,60.9736,40.257,16.91,72,100,2.6,RU,2024-08-25 05:44:38
171,new norfolk,-42.7826,147.0587,17.18,74,98,3.09,AU,2024-08-25 05:44:39
172,buta,2.7858,24.73,22.43,97,84,1.2,CD,2024-08-25 05:44:40
173,bridlington,54.0831,-0.1919,11.75,87,51,2.24,GB,2024-08-25 05:44:42
174,port lincoln,-34.7333,135.8667,14.87,65,44,13.34,AU,2024-08-25 05:44:43
175,bikenibeu village,1.3673,173.1241,30.98,70,20,1.03,KI,2024-08-25 05:44:44
176,aasiaat,68.7098,-52.8699,3.67,81,69,7.7,GL,2024-08-25 05:44:45
177,port augusta,-32.5,137.7667,22.24,30,2,12.26,AU,2024-08-25 05:44:46
178,dunedin,-45.8742,170.5036,6.0,98,100,2.2,NZ,2024-08-25 05:44:48
179,monrovia,6.3005,-10.7969,24.6,85,99,7.33,LR,2024-08-25 05:44:49
180,murzuq,25.9155,13.9184,29.61,38,0,4.94,LY,2024-08-25 05:44:50
181,gudalur,9.6833,77.2667,27.93,61,100,4.42,IN,2024-08-25 05:44:51
182,kuqa,41.7278,82.9364,30.97,24,73,1.8,CN,2024-08-25 05:44:53
183,lata,40.1629,-8.3327,11.65,96,4,1.79,PT,2024-08-25 05:44:54
184,bethel,41.3712,-73.414,17.96,86,0,1.54,US,2024-08-25 05:44:55
185,crane,31.3974,-102.3501,29.85,35,26,4.89,US,2024-08-25 05:44:56
186,eau claire,44.8114,-91.4985,23.21,83,0,2.57,US,2024-08-25 05:42:15
187,palmer,42.1584,-72.3287,16.62,86,75,1.54,US,2024-08-25 05:44:59
188,brattleboro,42.8509,-72.5579,17.82,91,29,0.85,US,2024-08-25 05:45:00
189,poxoreo,-15.8372,-54.3892,19.09,65,2,2.67,BR,2024-08-25 05:45:01
190,mata-utu,-13.2816,-176.1745,26.9,80,100,9.64,WF,2024-08-25 05:40:19
191,kushiro,42.975,144.3747,19.53,82,75,6.17,JP,2024-08-25 05:45:04
192,ulmeni,47.4667,23.3,21.09,31,53,2.95,RO,2024-08-25 05:45:05
193,brokopondo,4.75,-55.1667,26.44,78,52,4.46,SR,2024-08-25 05:45:06
194,puerto armuelles,8.2833,-82.8667,25.05,88,100,1.34,PA,2024-08-25 05:45:07
195,pisco,-13.7,-76.2167,16.03,82,0,1.54,PE,2024-08-25 05:45:09
196,san patricio,28.017,-97.5169,27.97,66,5,4.14,US,2024-08-25 05:45:10
197,cide,41.8921,33.0044,25.56,65,0,2.08,TR,2024-08-25 05:45:11
198,portage la prairie,49.9728,-98.2926,23.83,60,6,6.89,CA,2024-08-25 05:45:12
199,remire-montjoly,4.9167,-52.2667,25.02,94,40,0.0,GF,2024-08-25 05:45:14
200,dhuusamarreeb,5.535,46.3861,27.47,61,100,10.33,SO,2024-08-25 05:45:15
201,kupang,-10.1667,123.5833,31.58,50,24,7.81,ID,2024-08-25 05:45:16
202,asbestos,45.7668,-71.9324,14.86,95,84,1.8,CA,2024-08-25 05:45:17
203,magadan,59.5667,150.8,15.03,56,100,3.35,RU,2024-08-25 05:45:18
204,mar del plata,-38.0023,-57.5575,7.27,77,100,4.63,AR,2024-08-25 05:35:05
205,ola,59.5833,151.2833,15.07,54,100,3.18,RU,2024-08-25 05:45:21
206,santa elena de uairen,4.6167,-61.1333,18.53,89,25,0.92,VE,2024-08-25 05:45:22
207,debeljaca,45.0711,20.6,25.7,30,94,2.4,RS,2024-08-25 05:45:23
208,praia da vitoria,38.7333,-27.0667,20.98,83,20,1.28,PT,2024-08-25 05:45:25
209,tazovsky,67.4667,78.7,12.93,67,53,2.15,RU,2024-08-25 05:45:26
210,vokhtoga,58.8147,41.0461,19.45,72,99,1.84,RU,2024-08-25 05:45:27
211,luderitz,-26.6481,15.1594,12.61,80,1,3.65,NA,2024-08-25 05:45:28
212,fall river,41.7015,-71.1551,19.74,91,0,0.0,US,2024-08-25 05:41:21
213,tamanrasset,22.785,5.5228,22.95,49,0,2.57,DZ,2024-08-25 05:45:31
214,hawaiian paradise park,19.5933,-154.9731,24.73,98,100,6.17,US,2024-08-25 05:45:32
215,copala,16.65,-98.9833,26.07,83,99,1.9,MX,2024-08-25 05:45:33
216,rio preto da eva,-2.6994,-59.6997,25.51,51,38,1.42,BR,2024-08-25 05:45:34
217,cardona,14.45,121.2167,27.57,75,93,1.28,PH,2024-08-25 05:45:36
218,chui,-33.6971,-53.4616,6.93,83,87,6.05,UY,2024-08-25 05:45:37
219,ketchikan,55.3422,-131.6461,14.26,82,100,6.17,US,2024-08-25 05:45:38
220,villa gesell,-37.2639,-56.973,6.86,72,99,7.98,AR,2024-08-25 05:45:39
221,tazacorte,28.629,-17.9293,23.54,93,100,7.72,ES,2024-08-25 05:45:40
222,fuglafjordur,62.244,-6.814,8.9,77,92,5.4,FO,2024-08-25 05:45:42
223,ashchysay,43.5542,68.8889,19.25,27,36,4.77,KZ,2024-08-25 05:45:43
224,mejit,10.2753,170.8646,28.58,77,66,4.43,MH,2024-08-25 05:45:44
225,brisas de zicatela,15.8369,-97.0419,27.5,83,63,3.62,MX,2024-08-25 05:45:45
226,jose maria morelos,30.8066,-112.684,32.14,34,0,3.26,MX,2024-08-25 05:45:47
227,tashtagol,52.7657,87.8894,24.97,39,58,4.24,RU,2024-08-25 05:45:48
228,strelka,58.0728,93.0344,23.42,69,98,2.29,RU,2024-08-25 05:45:49
229,port saint john's,-31.6229,29.5448,18.8,76,71,2.65,ZA,2024-08-25 05:45:50
230,callao,-12.0667,-77.15,16.51,88,100,3.6,PE,2024-08-25 05:45:53
231,tamandare,-8.7597,-35.1047,22.49,79,18,4.0,BR,2024-08-25 05:45:54
232,huarmey,-10.0681,-78.1522,16.81,89,20,3.06,PE,2024-08-25 05:42:41
233,fort st. john,56.2499,-120.8529,10.94,87,40,3.09,CA,2024-08-25 05:45:56
234,nadi,-17.8,177.4167,23.0,94,75,0.0,FJ,2024-08-25 05:41:05
235,bathsheba,13.2167,-59.5167,26.34,94,40,2.06,BB,2024-08-25 05:45:59
236,mramani,-12.3464,44.5286,24.9,72,88,7.66,KM,2024-08-25 05:46:00
237,kone,-21.0595,164.8658,23.86,59,0,3.49,NC,2024-08-25 05:46:01
238,lorengau,-2.0226,147.2712,28.04,80,99,4.83,PG,2024-08-25 05:46:03
239,qaisumah,28.3112,46.1273,34.98,41,0,3.6,SA,2024-08-25 05:46:04
240,abeche,13.8292,20.8324,23.85,82,100,1.02,TD,2024-08-25 05:46:05
241,yaren,-0.5472,166.916,28.77,69,13,3.13,NR,2024-08-25 05:46:06
242,fort bragg,35.139,-79.006,20.28,88,0,0.89,US,2024-08-25 05:46:07
243,reggane,26.7158,0.1714,34.9,12,0,8.82,DZ,2024-08-25 05:46:09
244,el granada,37.5027,-122.4694,17.43,86,0,6.69,US,2024-08-25 05:46:10
245,yagoua,10.3411,15.2329,22.13,96,100,3.84,CM,2024-08-25 05:46:11
246,labytnangi,66.6572,66.4183,18.64,58,40,3.31,RU,2024-08-25 05:46:12
247,progreso,21.2833,-89.6667,25.54,88,48,3.15,MX,2024-08-25 05:46:14
248,la grande,45.3246,-118.0877,15.38,59,93,1.94,US,2024-08-25 05:46:15
249,porto novo,6.4965,2.6036,23.9,92,80,1.94,BJ,2024-08-25 05:46:16
250,dalhousie,32.5333,75.9833,21.48,81,37,2.06,IN,2024-08-25 05:46:17
251,kuala belait,4.5833,114.1833,26.19,84,100,4.3,BN,2024-08-25 05:46:18
252,jardin america,-27.0435,-55.227,4.26,92,0,0.88,AR,2024-08-25 05:46:20
253,gadzhiyevo,69.2551,33.3362,12.39,73,100,9.44,RU,2024-08-25 05:46:21
254,portland,45.5234,-122.6762,17.99,78,100,0.89,US,2024-08-25 05:34:23
255,south lake tahoe,38.9332,-119.9844,4.58,91,0,0.0,US,2024-08-25 05:46:23
256,nikel,69.4128,30.222,12.47,70,98,6.38,RU,2024-08-25 05:46:25
257,shushtar,32.0455,48.8567,39.1,34,59,2.12,IR,2024-08-25 05:46:26
258,maloye ganyushkino,46.6,49.2667,27.48,23,100,4.78,KZ,2024-08-25 05:46:27
259,tangalle,6.024,80.7911,31.72,59,67,6.83,LK,2024-08-25 05:46:28
260,galle,6.0367,80.217,29.4,79,63,1.34,LK,2024-08-25 05:46:29
261,mhamid,29.82,-5.72,31.48,25,34,2.81,MA,2024-08-25 05:46:31
262,porto santo stefano,42.4338,11.1237,20.77,64,5,2.57,IT,2024-08-25 05:46:32
263,kodiak,57.79,-152.4072,11.73,62,20,3.6,US,2024-08-25 05:46:33
264,cardenas,23.0375,-81.2047,25.42,88,82,3.19,CU,2024-08-25 05:46:34
265,naliya,23.2667,68.8333,29.24,70,100,9.26,IN,2024-08-25 05:46:36
266,mossel bay,-34.1831,22.146,7.96,66,69,2.35,ZA,2024-08-25 05:46:37
267,tarija,-21.5355,-64.7296,2.92,83,69,0.93,BO,2024-08-25 05:46:38
268,flying fish cove,-10.4217,105.6791,25.82,78,100,6.69,CX,2024-08-25 05:46:39
269,kirakira,-10.4544,161.9205,26.61,76,100,4.29,SB,2024-08-25 05:46:40
270,yanam,16.7333,82.2167,31.84,58,92,4.47,IN,2024-08-25 05:46:42
271,garoowe,8.4054,48.4845,28.63,46,92,11.95,SO,2024-08-25 05:46:43
272,zaozersk,69.4005,32.4476,13.01,67,94,9.94,RU,2024-08-25 05:46:44
273,nanning,22.8167,108.3167,34.25,53,76,2.37,CN,2024-08-25 05:46:45
274,kapuskasing,49.4169,-82.4331,16.0,100,0,1.03,CA,2024-08-25 05:46:47
275,ebaye,8.7748,167.7392,28.01,83,75,4.63,MH,2024-08-25 05:46:48
276,bayanaul,50.7889,75.6956,11.84,81,85,9.24,KZ,2024-08-25 05:46:49
277,walvis bay,-22.9575,14.5053,13.38,74,0,3.36,NA,2024-08-25 05:46:50
278,alofi,-19.0595,-169.9187,23.94,83,75,6.17,NU,2024-08-25 05:46:51
279,baiona,43.4833,-1.4833,17.85,100,100,1.54,FR,2024-08-25 05:46:53
280,cabo san lucas,22.8909,-109.9124,29.86,65,17,2.68,MX,2024-08-25 05:46:54
281,leava,-14.3,-178.1667,26.64,78,98,9.93,WF,2024-08-25 05:46:56
282,cidade velha,14.9167,-23.6167,26.26,78,75,6.69,CV,2024-08-25 05:46:57
283,pereira barreto,-20.6383,-51.1092,15.36,74,86,3.66,BR,2024-08-25 05:46:58
284,xilin hot,43.9667,116.0333,22.3,39,99,2.09,CN,2024-08-25 05:46:59
285,kimbe,-5.5502,150.1429,29.34,69,100,4.76,PG,2024-08-25 05:47:00
286,bambanglipuro,-7.95,110.2833,27.27,66,51,7.45,ID,2024-08-25 05:47:02
287,chibougamau,49.9168,-74.3659,15.79,100,100,2.06,CA,2024-08-25 05:47:03
288,ust-nera,64.5667,143.2,19.46,46,55,2.07,RU,2024-08-25 05:47:04
289,arraial do cabo,-22.9661,-42.0278,21.7,91,100,6.68,BR,2024-08-25 05:47:05
290,kapa'a,22.0752,-159.319,27.18,76,100,7.72,US,2024-08-25 05:47:07
291,okap,19.7578,-72.2042,27.58,76,11,5.53,HT,2024-08-25 05:47:08
292,hpa-an,16.8906,97.6333,28.21,78,99,1.12,MM,2024-08-25 05:47:09
293,akureyri,65.6835,-18.0878,4.96,93,100,1.03,IS,2024-08-25 05:47:10
294,sabzevar,36.2126,57.6819,28.6,24,0,5.14,IR,2024-08-25 05:47:11
295,greenwood,34.1668,-82.1165,17.09,93,0,0.0,US,2024-08-25 05:47:13
296,novoishimskiy,53.1981,66.7694,14.01,74,81,6.64,KZ,2024-08-25 05:47:14
297,berezhani,49.45,24.9333,21.94,41,21,3.6,UA,2024-08-25 05:47:15
298,bukama,-9.2,25.85,25.66,30,29,1.06,CD,2024-08-25 05:47:16
299,turpan,42.9333,89.1667,40.62,15,28,0.74,CN,2024-08-25 05:47:18
300,magnolia,33.2671,-93.2393,22.71,94,6,1.86,US,2024-08-25 05:47:19
301,malpica,43.3228,-8.8105,15.21,75,20,4.49,ES,2024-08-25 05:47:20
302,aliganj,27.5,79.1833,32.05,60,37,6.98,IN,2024-08-25 05:47:21
303,kataba,8.4604,-0.7732,23.15,96,98,2.14,GH,2024-08-25 05:47:22
304,howrah,22.5892,88.3103,29.0,89,75,1.54,IN,2024-08-25 05:47:24
305,brumunddal,60.881,10.9395,12.33,97,100,1.34,NO,2024-08-25 05:47:25
306,puerto asis,0.5133,-76.5007,21.49,94,79,1.45,CO,2024-08-25 05:47:26
307,rukungiri,-0.8411,29.9419,21.64,45,45,1.84,UG,2024-08-25 05:47:27
308,hadibu,12.65,54.0333,27.23,77,88,9.76,YE,2024-08-25 05:47:29
309,hovd,48.0056,91.6419,28.13,18,94,2.61,MN,2024-08-25 05:47:31
310,martan-chu,43.0637,45.5622,21.69,85,100,1.12,RU,2024-08-25 05:47:32
311,adrar,20.5022,-10.0711,32.93,37,61,5.19,MR,2024-08-25 05:47:34
312,enewetak,11.3474,162.3373,28.9,73,87,7.12,MH,2024-08-25 05:47:35
313,selfoss,63.9331,-20.9971,6.69,81,83,4.01,IS,2024-08-25 05:47:36
314,santa ana,33.7456,-117.8678,20.44,78,0,0.89,US,2024-08-25 05:47:37
315,vila velha,-20.3297,-40.2925,22.97,84,0,3.13,BR,2024-08-25 05:45:02
316,uturoa,-16.7333,-151.4333,25.66,75,75,10.56,PF,2024-08-25 05:47:40
317,pechora,65.1472,57.2244,19.09,52,29,5.57,RU,2024-08-25 05:47:41
318,barra de santo antonio,-9.4047,-35.5072,23.3,75,9,4.3,BR,2024-08-25 05:47:42
319,acapulco de juarez,16.8634,-99.8901,28.9,79,40,3.09,MX,2024-08-25 05:45:07
320,kulykivka,51.3735,31.6466,24.19,38,20,3.03,UA,2024-08-25 05:47:45
321,volodarskiy,46.4013,48.5409,27.44,25,100,4.93,RU,2024-08-25 05:47:46
322,sabang,5.8933,95.3214,27.34,75,100,5.03,ID,2024-08-25 05:47:47
323,aral,40.5156,81.2636,29.58,33,100,1.69,CN,2024-08-25 05:47:48
324,bamboo flat,11.7,92.7167,31.05,70,40,4.63,IN,2024-08-25 05:47:49
325,tocopilla,-22.092,-70.1979,15.14,78,26,1.39,CL,2024-08-25 05:47:51
326,lincoln,40.8,-96.667,26.95,78,0,4.12,US,2024-08-25 05:39:00
327,cartagena del chaira,1.3349,-74.8429,21.41,99,81,0.49,CO,2024-08-25 05:47:53
328,chivacoa,10.1603,-68.895,22.45,97,76,0.28,VE,2024-08-25 05:47:54
329,tchintabaraden,15.8969,5.7985,28.8,56,83,5.2,NE,2024-08-25 05:47:56
330,hamilton,39.1834,-84.5333,23.38,81,0,0.45,US,2024-08-25 05:46:14
331,manokwari,-0.8667,134.0833,29.25,64,78,3.07,ID,2024-08-25 05:47:58
332,puerto baquerizo moreno,-0.9,-89.6,19.16,84,38,5.28,EC,2024-08-25 05:47:19
333,reinfeld,53.8333,10.4833,17.03,84,75,3.09,DE,2024-08-25 05:48:00
334,bontang,0.1333,117.5,27.87,78,98,2.54,ID,2024-08-25 05:48:02
335,develi,38.3906,35.4922,17.89,73,70,1.99,TR,2024-08-25 05:48:03
336,isangel,-19.55,169.2667,22.73,76,0,4.51,VU,2024-08-25 05:48:04
337,gaigeturi,33.4644,126.3183,31.03,66,0,3.6,KR,2024-08-25 05:48:05
338,xiazhuang,34.9161,118.6389,32.56,63,80,2.39,CN,2024-08-25 05:48:07
339,benguela,-12.5763,13.4055,19.18,89,26,0.67,AO,2024-08-25 05:48:08
340,necochea,-38.5473,-58.7368,7.44,65,98,5.85,AR,2024-08-25 05:44:39
341,gokwe,-18.2048,28.9349,16.79,57,2,1.79,ZW,2024-08-25 05:48:10
342,whangarei,-35.7317,174.3239,11.98,84,61,1.0,NZ,2024-08-25 05:47:32
343,talakan,50.3167,130.3667,21.62,54,100,4.79,RU,2024-08-25 05:48:13
344,daloa,6.8774,-6.4502,20.75,94,96,1.55,CI,2024-08-25 05:48:14
345,codrington,-38.2667,141.9667,14.76,79,56,8.77,AU,2024-08-25 05:48:15
346,yarmouth,41.7057,-70.2286,21.11,87,20,2.57,US,2024-08-25 05:48:16
347,nagqu,31.5,92.0,17.62,26,3,3.2,CN,2024-08-25 05:48:18
348,conception bay south,47.4999,-52.9981,16.52,95,23,4.3,CA,2024-08-25 05:48:19
349,kruisfontein,-34.0033,24.7314,13.46,71,85,1.13,ZA,2024-08-25 05:48:20
350,mukalla,14.5425,49.1242,31.76,59,88,3.87,YE,2024-08-25 05:48:21
351,kyzyl-suu,42.3414,78.0056,20.34,50,0,3.98,KG,2024-08-25 05:48:23
352,zara,44.1197,15.2422,25.34,83,0,1.03,HR,2024-08-25 05:48:24
353,guane,22.2025,-84.0875,24.75,91,80,2.44,CU,2024-08-25 05:47:59
354,tongouson,5.0214,120.1328,28.75,75,32,6.47,PH,2024-08-25 05:48:26
355,astrakhan,46.3497,48.0408,24.93,38,0,6.0,RU,2024-08-25 05:48:27
356,borba,-4.3878,-59.5939,26.05,46,17,0.88,BR,2024-08-25 05:48:29
357,olivenza,38.6832,-7.103,17.95,71,44,1.05,ES,2024-08-25 05:48:30
358,altamira,-3.2033,-52.2064,23.96,62,43,1.85,BR,2024-08-25 05:46:00
359,ishigaki,24.3448,124.1572,30.07,84,75,4.12,JP,2024-08-25 05:48:32
360,ankazoabo,-22.2833,44.5167,21.12,34,0,2.2,MG,2024-08-25 05:48:34
361,dadukou,26.5479,101.7054,31.64,48,25,0.96,CN,2024-08-25 05:48:35
362,khowai,24.1,91.6333,30.51,72,94,1.2,IN,2024-08-25 05:48:36
363,bratsk,56.1325,101.6142,25.27,50,55,3.48,RU,2024-08-25 05:48:37
364,marquette,46.5333,-87.6335,16.69,98,6,1.88,US,2024-08-25 05:48:38
365,colonia,50.9333,6.95,16.09,83,40,4.12,DE,2024-08-25 05:48:40
366,birobidzhan,48.8,132.95,17.63,76,100,2.05,RU,2024-08-25 05:47:04
367,khabarovsk,48.4808,135.0928,22.89,68,40,3.0,RU,2024-08-25 05:48:42
368,kill devil hills,36.0307,-75.676,22.77,90,0,2.57,US,2024-08-25 05:48:43
369,amasra,41.7463,32.3863,24.76,64,0,1.14,TR,2024-08-25 05:48:45
370,agadez,19.75,10.25,32.69,33,21,4.31,NE,2024-08-25 05:48:46
371,totness,5.8833,-56.3167,26.79,87,29,5.5,SR,2024-08-25 05:48:47
372,sao vicente,-23.9631,-46.3919,14.43,26,100,6.1,BR,2024-08-25 05:48:48
373,svendborg,55.0598,10.6068,15.73,84,100,6.83,DK,2024-08-25 05:48:50
374,amnat charoen,15.9167,104.75,29.48,68,92,2.1,TH,2024-08-25 05:48:51
375,taos,36.4072,-105.5731,14.59,89,75,3.6,US,2024-08-25 05:48:52
376,calvi,42.5,8.8333,18.35,73,0,3.09,FR,2024-08-25 05:48:53
377,guacimo,10.2104,-83.6807,23.57,96,100,0.92,CR,2024-08-25 05:48:54
378,soledade,-28.8183,-52.5103,4.72,79,51,1.78,BR,2024-08-25 05:48:56
379,saint-pierre,-21.3393,55.4781,22.82,53,100,5.14,RE,2024-08-25 05:48:57
380,sagalo,12.2007,-10.6996,20.29,96,98,1.75,ML,2024-08-25 05:48:58
381,minas de marcona,-15.2119,-75.1103,10.99,80,13,2.67,PE,2024-08-25 05:48:59
382,ikwiriri,-7.9562,38.9716,26.02,61,37,2.88,TZ,2024-08-25 05:49:01
383,argostolion,38.1811,20.489,27.04,83,20,4.12,GR,2024-08-25 05:49:03
384,les anglais,18.3054,-74.2197,25.4,84,13,0.89,HT,2024-08-25 05:49:04
385,mokhsogollokh,61.4681,128.9203,15.89,89,100,2.93,RU,2024-08-25 05:49:06
386,mumford,5.2618,-0.759,22.71,95,62,2.95,GH,2024-08-25 05:49:07
387,mount pearl,47.5166,-52.7813,16.19,93,75,6.69,CA,2024-08-25 05:49:08
388,yuzhno-kurilsk,44.0306,145.8556,17.64,76,4,3.91,RU,2024-08-25 05:49:09
389,shimoda,34.6667,138.95,28.02,82,29,4.23,JP,2024-08-25 05:49:10
390,vilyuysk,63.7553,121.6247,18.03,75,100,4.01,RU,2024-08-25 05:49:12
391,swift current,50.2834,-107.8014,20.45,34,20,3.09,CA,2024-08-25 05:49:13
392,tokuyama,34.05,131.8167,29.58,71,100,2.19,JP,2024-08-25 05:45:58
393,san antonio de pale,-1.4014,5.6325,24.01,77,88,4.27,GQ,2024-08-25 05:49:17
394,luwuk,-0.9516,122.7875,23.77,93,93,3.0,ID,2024-08-25 05:49:18
395,touros,-5.1989,-35.4608,22.56,85,53,5.32,BR,2024-08-25 05:49:19
396,al qadarif,14.0349,35.3834,25.17,79,65,3.8,SD,2024-08-25 05:49:20
397,karelichy,53.5653,26.1378,19.66,59,13,3.8,BY,2024-08-25 05:49:22
398,amble,55.3333,-1.5833,10.08,81,84,6.69,GB,2024-08-25 05:49:24
399,yuza,39.0,139.9167,28.03,81,97,1.28,JP,2024-08-25 05:49:25
400,inarajan village,13.2736,144.7484,29.88,76,95,2.16,GU,2024-08-25 05:49:27
401,kismayo,-0.3582,42.5454,26.7,71,40,7.46,SO,2024-08-25 05:49:28
402,khandyga,62.6667,135.6,22.26,48,100,2.02,RU,2024-08-25 05:49:29
403,katsuren-haebaru,26.3369,127.8719,33.21,70,75,5.66,JP,2024-08-25 05:49:30
404,belle fourche,44.6714,-103.8522,29.73,21,4,4.54,US,2024-08-25 05:49:31
405,uruacu,-14.5247,-49.1408,22.48,35,6,1.29,BR,2024-08-25 05:49:33
406,sydney mines,46.2367,-60.2177,18.89,90,40,5.14,CA,2024-08-25 05:49:34
407,sorong,-0.8833,131.25,27.93,74,78,2.3,ID,2024-08-25 05:49:35
408,utrik,11.2278,169.8474,28.39,80,100,6.61,MH,2024-08-25 05:49:36
409,piti village,13.4626,144.6933,30.03,77,100,3.6,GU,2024-08-25 05:49:38
410,belmonte,-15.8631,-38.8828,21.2,80,1,1.88,BR,2024-08-25 05:49:39
411,le vauclin,14.5452,-60.8388,27.18,73,20,4.2,MQ,2024-08-25 05:49:40
412,zhangye,38.9342,100.4517,26.86,36,90,5.07,CN,2024-08-25 05:49:41
413,chulym,55.0997,80.9572,17.07,83,66,5.77,RU,2024-08-25 05:49:43
414,karuzi,-3.125,30.1333,20.59,39,71,2.94,BI,2024-08-25 05:49:44
415,namibe,-15.1961,12.1522,17.52,85,69,2.98,AO,2024-08-25 05:49:45
416,general cabrera,-32.8131,-63.8724,3.37,60,19,3.1,AR,2024-08-25 05:49:46
417,tenosique,17.4833,-91.4333,23.25,97,97,1.33,MX,2024-08-25 05:49:47
418,el gouna,27.3942,33.6782,31.05,47,1,6.18,EG,2024-08-25 05:49:49
419,ochsenfurt,49.6643,10.0623,17.13,86,99,4.71,DE,2024-08-25 05:49:50
420,iraquara,-12.2486,-41.6194,14.55,96,0,1.44,BR,2024-08-25 05:49:51
421,makhambet,47.6667,51.5833,27.09,24,0,3.25,KZ,2024-08-25 05:49:52
422,as sulayyil,20.4607,45.5779,39.06,20,66,2.17,SA,2024-08-25 05:49:53
423,igarka,67.4667,86.5833,16.49,50,39,4.84,RU,2024-08-25 05:49:55
424,santa maria da vitoria,-13.3947,-44.1886,20.76,46,0,0.66,BR,2024-08-25 05:49:56
425,hesla,24.0667,85.8833,29.14,69,99,1.95,IN,2024-08-25 05:49:57
426,mahdia,35.5047,11.0622,26.14,55,0,2.48,TN,2024-08-25 05:49:58
427,ierapetra,35.01,25.7353,28.41,54,0,4.92,GR,2024-08-25 05:50:00
428,castlemaine,-37.0667,144.2167,15.53,93,42,8.75,AU,2024-08-25 05:50:01
429,ca mau,9.1769,105.15,32.17,58,67,4.84,VN,2024-08-25 05:50:02
430,labrador city,52.9463,-66.9114,17.95,77,100,2.06,CA,2024-08-25 05:50:03
431,atascadero,35.4894,-120.6707,17.89,67,0,0.89,US,2024-08-25 05:50:05
432,novodvinsk,64.4165,40.8122,16.86,56,5,4.41,RU,2024-08-25 05:50:06
433,matoury,4.8483,-52.3317,24.98,94,40,0.0,GF,2024-08-25 05:50:07
434,chos malal,-37.3781,-70.2709,3.15,45,8,1.67,AR,2024-08-25 05:50:08
435,calingasta,-31.3308,-69.4078,1.73,68,10,0.58,AR,2024-08-25 05:50:10
436,puerto princesa,9.7392,118.7353,30.99,70,75,4.12,PH,2024-08-25 05:50:11
437,el sauzal de rodriguez,31.9,-116.6833,19.12,56,0,1.79,MX,2024-08-25 05:50:12
438,ipameri,-17.7219,-48.1597,21.92,47,69,3.0,BR,2024-08-25 05:50:13
439,stockach,47.85,9.0167,17.06,70,81,1.18,DE,2024-08-25 05:50:14
440,uliastay,47.7417,96.8444,24.3,26,0,5.93,MN,2024-08-25 05:50:16
441,danilov,58.1908,40.1717,20.09,72,47,2.29,RU,2024-08-25 05:50:17
442,cururupu,-1.8283,-44.8683,23.1,92,65,0.8,BR,2024-08-25 05:50:18
443,kormilovka,55.0026,74.1028,13.48,94,100,4.22,RU,2024-08-25 05:50:19
444,polyarnyy,69.1989,33.4478,12.14,74,100,9.17,RU,2024-08-25 05:50:21
445,siwa oasis,29.2041,25.5195,29.64,42,0,3.78,EG,2024-08-25 05:50:22
446,yangambi,0.8102,24.4336,23.16,87,100,1.5,CD,2024-08-25 05:50:23
447,preobrazheniye,42.9019,133.9064,20.68,92,98,4.59,RU,2024-08-25 05:50:24
448,wau,7.7029,27.9953,23.11,94,90,1.96,SS,2024-08-25 05:50:25
449,tofol,5.3248,163.0078,29.28,71,100,4.03,FM,2024-08-25 05:50:27
450,guayaramerin,-10.8368,-65.3614,27.97,43,53,3.29,BO,2024-08-25 05:50:28
451,chebba,35.2372,11.115,26.88,61,0,2.56,TN,2024-08-25 05:50:29
452,k'olito,7.3167,38.0833,16.73,84,85,4.07,ET,2024-08-25 05:50:30
453,tshikapa,-6.4167,20.8,24.78,26,35,1.87,CD,2024-08-25 05:50:32
454,urazovo,50.0836,38.0395,28.79,25,89,2.24,RU,2024-08-25 05:50:33
455,zag,46.9441,99.165,22.17,31,33,3.33,MN,2024-08-25 05:50:34
456,madinat ash shamal,26.1293,51.2009,35.38,53,1,0.32,QA,2024-08-25 05:50:35
457,novaya ladoga,60.1025,32.3019,16.51,78,9,3.16,RU,2024-08-25 05:50:36
458,sakakah,29.9697,40.2064,29.76,20,6,1.57,SA,2024-08-25 05:50:06
459,post,33.1909,-101.3782,29.99,43,5,7.92,US,2024-08-25 05:50:39
460,greymouth,-42.4667,171.2,11.77,98,100,6.1,NZ,2024-08-25 05:47:42
461,tambura,5.6,27.4667,21.24,96,87,1.42,SS,2024-08-25 05:50:41
462,piacabucu,-10.4056,-36.4344,22.94,82,63,3.97,BR,2024-08-25 05:50:43
463,la'ie,21.6477,-157.9253,25.66,90,30,3.13,US,2024-08-25 05:50:44
464,balsas,-7.5325,-46.0356,23.44,45,15,1.64,BR,2024-08-25 05:50:46
465,kutum,14.2,24.6667,22.57,75,63,3.06,SD,2024-08-25 05:50:48
466,luanda,-8.8368,13.2343,18.0,94,20,0.0,AO,2024-08-25 05:50:14
467,ta`u,-14.2336,-169.5144,26.23,83,94,10.59,AS,2024-08-25 05:50:50
468,revda,56.801,59.9303,16.39,53,9,2.12,RU,2024-08-25 05:50:51
469,ondo,7.1,4.8333,21.55,99,100,0.76,NG,2024-08-25 05:50:53
470,queenstown,-31.8976,26.8753,11.64,81,80,0.9,ZA,2024-08-25 05:50:54
471,chulakkurgan,43.765,69.1814,22.87,25,11,4.17,KZ,2024-08-25 05:50:55
472,yelizovo,53.1873,158.3805,18.08,55,75,6.0,RU,2024-08-25 05:50:56
473,sur,22.5667,59.5289,33.67,49,37,0.43,OM,2024-08-25 05:50:57
474,abqaiq,25.9371,49.6776,37.73,39,2,1.52,SA,2024-08-25 05:50:59
475,taro,-8.3862,115.28,25.59,69,85,2.54,ID,2024-08-25 05:51:00
476,roma,43.2128,-75.4557,15.76,97,0,0.0,US,2024-08-25 05:51:01
477,karymskoye,51.6167,114.35,26.36,21,0,3.82,RU,2024-08-25 05:51:02
478,ujae,8.9322,165.7642,27.67,78,97,3.5,MH,2024-08-25 05:51:04
479,juneau,58.3019,-134.4197,12.0,98,100,6.17,US,2024-08-25 05:49:27
480,cabedelo,-6.9811,-34.8339,21.37,82,26,5.24,BR,2024-08-25 05:51:06
481,saint-paul,-21.0096,55.2707,22.22,81,43,0.56,RE,2024-08-25 05:51:07
482,nizao,18.25,-70.2,25.78,82,5,5.96,DO,2024-08-25 05:51:08
483,kaniv,49.7518,31.46,26.37,39,4,3.99,UA,2024-08-25 05:51:10
484,sunland park,31.7965,-106.58,31.52,30,20,4.12,US,2024-08-25 05:51:11
485,kidal,18.4411,1.4078,28.85,55,70,3.54,ML,2024-08-25 05:51:12
486,usinsk,65.9939,57.5281,17.83,56,92,8.29,RU,2024-08-25 05:51:13
487,bandarbeyla,9.4942,50.8122,30.15,55,97,11.42,SO,2024-08-25 05:51:15
488,porbandar,21.6422,69.6093,28.99,74,100,7.72,IN,2024-08-25 05:51:16
489,ghat,24.9647,10.1728,33.29,29,13,1.21,LY,2024-08-25 05:51:17
490,guerrero negro,27.9769,-114.0611,20.08,78,0,5.87,MX,2024-08-25 05:51:18
491,beli,7.8587,10.9719,21.62,96,100,1.01,NG,2024-08-25 05:51:20
492,ormara,25.2088,64.6357,26.97,84,76,7.95,PK,2024-08-25 05:51:21
493,el-tor,28.2364,33.6254,30.08,70,2,4.12,EG,2024-08-25 05:51:22
494,terra santa,-2.1042,-56.4869,24.73,66,6,1.71,BR,2024-08-25 05:51:23
495,newman,37.3138,-121.0208,17.8,69,6,0.89,US,2024-08-25 05:51:25
496,berdigestyakh,62.0989,126.6992,14.6,95,100,2.77,RU,2024-08-25 05:51:26
497,antsiranana,-12.2787,49.2917,26.42,47,20,9.26,MG,2024-08-25 05:51:27
498,nova vicosa,-17.8919,-39.3719,21.91,80,7,4.57,BR,2024-08-25 05:51:28
499,puerto penasco,31.3167,-113.5333,30.51,81,1,3.13,MX,2024-08-25 05:51:29
500,am timan,11.0297,20.2827,21.15,96,100,2.25,TD,2024-08-25 05:51:31
501,cooper's town,26.8667,-77.5167,28.59,76,85,4.8,BS,2024-08-25 05:51:32
502,sechura,-5.5569,-80.8222,16.83,85,7,3.53,PE,2024-08-25 05:51:33
503,harstad,68.799,16.5293,12.86,76,1,8.05,NO,2024-08-25 05:51:34
504,mingshui,36.7167,117.5,32.33,66,100,2.25,CN,2024-08-25 05:51:36
505,erenhot,43.6475,111.9767,24.4,31,93,3.57,CN,2024-08-25 05:51:37
506,al kharj,24.155,47.3346,37.32,15,0,4.81,SA,2024-08-25 05:51:38
507,lima,-12.0432,-77.0282,15.5,89,100,3.6,PE,2024-08-25 05:40:13
508,sola,-13.8833,167.55,25.16,77,65,9.26,VU,2024-08-25 05:51:40
509,turbana,10.2717,-75.4422,27.45,91,93,0.99,CO,2024-08-25 05:51:01
510,sambava,-14.2667,50.1667,22.98,67,90,9.43,MG,2024-08-25 05:51:45
511,cockburn town,21.4612,-71.1419,28.58,74,8,8.86,TC,2024-08-25 05:51:47
512,hobyo,5.3505,48.5268,27.55,70,97,11.64,SO,2024-08-25 05:51:48
513,tarauaca,-8.1614,-70.7656,23.91,65,10,1.4,BR,2024-08-25 05:51:49
514,shemysheyka,52.892,45.3928,19.75,60,56,3.45,RU,2024-08-25 05:51:50
515,toro,4.6117,-76.0814,17.47,98,90,0.65,CO,2024-08-25 05:51:52
516,san sebastian de la gomera,28.0916,-17.1133,24.2,73,75,1.54,ES,2024-08-25 05:51:53
517,kindu,-2.95,25.95,27.15,37,8,1.13,CD,2024-08-25 05:51:54
518,tranqueras,-31.2,-55.75,3.83,90,54,1.71,UY,2024-08-25 05:51:55
519,leh,34.1667,77.5833,16.47,37,14,3.52,IN,2024-08-25 05:51:56
520,dzhangala,49.2167,50.3333,27.5,26,5,1.88,KZ,2024-08-25 05:51:58
521,loukhi,66.0764,33.0381,15.28,60,1,4.44,RU,2024-08-25 05:47:14
522,sturgis,41.7992,-85.4192,22.26,92,75,1.03,US,2024-08-25 05:50:38
523,kaintragarh,20.7167,84.5333,28.98,79,98,1.26,IN,2024-08-25 05:52:01
524,nguigmi,14.2495,13.1092,28.21,60,100,7.89,NE,2024-08-25 05:52:03
525,kish,26.5578,54.0194,37.15,56,15,0.0,IR,2024-08-25 05:52:04
526,vorkuta,67.5,64.0,17.98,57,33,4.92,RU,2024-08-25 05:52:05
527,safotu,-13.4513,-172.4018,26.53,79,52,10.77,WS,2024-08-25 05:52:06
528,rosetta,31.4044,30.4164,28.6,61,0,2.2,EG,2024-08-25 05:52:07
529,vadso,70.0744,29.7487,13.09,82,40,8.23,NO,2024-08-25 05:52:09
530,lihue,21.9789,-159.3672,26.77,76,100,7.72,US,2024-08-25 05:52:10
531,cascais,38.6979,-9.4215,17.64,74,0,5.36,PT,2024-08-25 05:52:11
532,kakata,6.53,-10.3517,22.69,95,99,2.55,LR,2024-08-25 05:52:12
533,masterton,-40.9597,175.6575,12.04,72,100,6.02,NZ,2024-08-25 05:52:14
534,chu,43.5983,73.7614,27.23,24,0,4.19,KZ,2024-08-25 05:52:15
535,sinabang,2.4803,96.3801,26.91,81,99,0.18,ID,2024-08-25 05:52:16
536,oudtshoorn,-33.5907,22.2014,11.61,70,76,1.2,ZA,2024-08-25 05:52:17
537,poltava,49.5937,34.5407,28.37,34,35,2.93,UA,2024-08-25 05:49:05
538,hotan,37.0997,79.9269,30.15,27,44,2.6,CN,2024-08-25 05:52:21
539,mil'kovo,55.6078,37.7956,19.73,57,6,1.75,RU,2024-08-25 05:52:22
540,suponevo,53.2049,34.296,21.84,51,19,1.14,RU,2024-08-25 05:52:24
541,wake forest,35.9799,-78.5097,19.1,87,1,1.94,US,2024-08-25 05:48:54
542,port-vila,-17.7338,168.3219,23.78,64,20,5.14,VU,2024-08-25 05:52:26
543,miramar,25.9873,-80.2323,28.32,82,0,2.57,US,2024-08-25 05:52:27
544,diapaga,12.0708,1.7889,22.34,96,86,2.22,BF,2024-08-25 05:52:28
545,ebon,4.582,168.6964,28.81,68,87,1.87,MH,2024-08-25 05:52:30
546,los zacatones,22.95,-102.05,17.4,59,98,8.1,MX,2024-08-25 05:52:31
547,chust,41.0094,71.2287,28.66,14,2,2.88,UZ,2024-08-25 05:52:32
548,vrangel',42.7297,133.0839,20.62,86,96,7.49,RU,2024-08-25 05:52:33
549,asind,25.7333,74.3333,29.38,70,82,6.09,IN,2024-08-25 05:52:35
550,dire,12.2833,-10.9667,21.96,95,97,1.58,ML,2024-08-25 05:52:36
551,lerwick,60.1545,-1.1494,11.02,87,83,10.01,GB,2024-08-25 05:52:37
552,veraval,20.9,70.3667,27.47,85,100,8.08,IN,2024-08-25 05:52:38
553,westport,41.1415,-73.3579,19.62,92,0,0.45,US,2024-08-25 05:52:39
554,nouadhibou,20.931,-17.0347,21.81,85,30,10.08,MR,2024-08-25 05:52:41
555,monroe,43.1501,-77.6831,17.9,92,40,1.54,US,2024-08-25 05:52:42
556,popondetta,-8.7537,148.2534,28.36,68,100,2.3,PG,2024-08-25 05:52:43
557,argo,37.6333,22.7333,30.47,37,4,2.35,GR,2024-08-25 05:52:44
558,sogndal,61.2283,7.1003,11.21,93,100,1.54,NO,2024-08-25 05:52:46
559,oroqen zizhiqi,50.5667,123.7167,21.68,52,91,3.25,CN,2024-08-25 05:52:47
560,bongaree,-27.0797,153.1586,21.63,73,0,7.08,AU,2024-08-25 05:52:48
561,woolgoolga,-30.1106,153.2007,22.93,73,66,1.48,AU,2024-08-25 05:52:49
562,patrasaer,23.2167,87.5167,30.47,69,100,1.1,IN,2024-08-25 05:52:50
563,itaituba,-4.2761,-55.9836,23.42,64,7,0.69,BR,2024-08-25 05:52:52
564,atkarsk,51.8718,45.0078,22.52,58,45,3.37,RU,2024-08-25 05:52:53
565,greenland,43.0362,-70.8328,17.49,92,30,1.66,US,2024-08-25 05:51:47
566,santa terezinha,-29.9002,-50.0904,10.27,74,87,4.44,BR,2024-08-25 05:52:55
567,santo tome,-31.6627,-60.7653,5.56,89,0,1.34,AR,2024-08-25 05:52:57
568,la paz,-16.5,-68.15,8.1,86,20,2.57,BO,2024-08-25 05:50:46
569,horta,38.5333,-28.6333,23.34,82,80,1.79,PT,2024-08-25 05:52:59
570,shakawe,-18.3667,21.85,16.06,38,9,2.48,BW,2024-08-25 05:53:00
571,oltinko'l,40.8011,72.1634,34.07,14,0,2.83,UZ,2024-08-25 05:53:02
572,kertih,4.5141,103.4483,32.01,59,40,3.13,MY,2024-08-25 05:53:03
573,lazaro cardenas,17.9583,-102.2,26.45,86,97,1.44,MX,2024-08-25 05:53:04
574,buenavista del norte,28.3746,-16.861,23.87,72,15,7.89,ES,2024-08-25 05:53:05
575,maceio,-9.6658,-35.7353,20.69,94,20,1.54,BR,2024-08-25 05:53:07
576,cannonvale,-20.2833,148.7,22.66,70,14,5.8,AU,2024-08-25 05:53:08
577,usogorsk,63.4106,48.6872,18.87,67,23,4.43,RU,2024-08-25 05:53:09
578,beledweyne,4.7358,45.2036,27.81,59,96,9.16,SO,2024-08-25 05:53:10
579,daru,-9.0763,143.2092,25.72,84,97,8.08,PG,2024-08-25 05:53:12
580,longjiang,47.3303,123.1836,22.88,59,67,3.68,CN,2024-08-25 05:53:13
581,dryden,49.7833,-92.7503,20.16,88,20,4.63,CA,2024-08-25 05:53:14
582,ixtapa,20.7,-105.2,26.24,88,100,1.25,MX,2024-08-25 05:50:10
583,bandar lampung,-5.4254,105.258,30.97,52,87,3.18,ID,2024-08-25 05:53:18
584,saldanha,-33.0117,17.9442,11.03,87,75,5.03,ZA,2024-08-25 05:53:19
585,ambatofinandrahana,-20.55,46.8,13.35,49,1,2.22,MG,2024-08-25 05:53:20
586,mandalgovi,45.7625,106.2708,22.14,40,100,3.74,MN,2024-08-25 05:53:22
587,iquique,-20.2208,-70.1431,14.03,85,46,1.98,CL,2024-08-25 05:51:50
588,bam,29.106,58.357,34.01,10,0,8.89,IR,2024-08-25 05:53:24
